[
  {
    "station_name_english": "Taipei Zoo",
    "station_id": "BR01",
    "station_location_code": 11656,
    "station_line_name": "文湖線",
    "latitude": 24.998197,
    "station_address": "台北市文山區新光路二段32號",
    "station_name_chinese": "動物園",
    "longitude": 121.579338,
    "station_line_id": "BR"
  },
  {
      "station_name_english": "Muzha",
      "station_id": "BR02",
      "station_location_code": 11656,
      "station_line_name": "文湖線",
      "latitude": 24.998241,
      "station_address": "台北市文山區木柵路四段135號",
      "station_name_chinese": "木柵",
      "longitude": 121.573145,
      "station_line_id": "BR"
  },
  {
      "station_name_english": "Wanfang Community",
      "station_id": "BR03",
      "station_location_code": 11653,
      "station_line_name": "文湖線",
      "latitude": 24.998585,
      "station_address": "台北市文山區萬芳路60號",
      "station_name_chinese": "萬芳社區",
      "longitude": 121.568102,
      "station_line_id": "BR"
  },
  {
      "station_name_english": "Wanfang Hospital",
      "station_id": "BR04",
      "station_location_code": 11696,
      "station_line_name": "文湖線",
      "latitude": 24.999386,
      "station_address": "台北市文山區興隆路三段113號",
      "station_name_chinese": "萬芳醫院",
      "longitude": 121.558152,
      "station_line_id": "BR"
  },
  {
      "station_name_english": "Xinhai",
      "station_id": "BR05",
      "station_location_code": 11694,
      "station_line_name": "文湖線",
      "latitude": 25.005475,
      "station_address": "台北市文山區辛亥路四段128號",
      "station_name_chinese": "辛亥",
      "longitude": 121.557107,
      "station_line_id": "BR"
  },
  {
      "station_name_english": "Linguang",
      "station_id": "BR06",
      "station_location_code": 10676,
      "station_line_name": "文湖線",
      "latitude": 25.018535,
      "station_address": "台北市大安區和平東路三段410號",
      "station_name_chinese": "麟光",
      "longitude": 121.558791,
      "station_line_id": "BR"
  },
  {
      "station_name_english": "Liuzhangli",
      "station_id": "BR07",
      "station_location_code": 10674,
      "station_line_name": "文湖線",
      "latitude": 25.023777,
      "station_address": "台北市大安區和平東路三段168號",
      "station_name_chinese": "六張犁",
      "longitude": 121.553115,
      "station_line_id": "BR"
  },
  {
      "station_name_english": "Technology Building",
      "station_id": "BR08",
      "station_location_code": 10667,
      "station_line_name": "文湖線",
      "latitude": 25.026125,
      "station_address": "台北市大安區復興南路二段235號",
      "station_name_chinese": "科技大樓",
      "longitude": 121.543437,
      "station_line_id": "BR"
  },
  {
      "station_name_english": "Daan",
      "station_id": "BR09",
      "station_location_code": 10683,
      "station_line_name": "文湖線",
      "latitude": 25.032943,
      "station_address": "台北市大安區信義路四段2號",
      "station_name_chinese": "大安",
      "longitude": 121.543551,
      "station_line_id": "BR"
  },
  {
      "station_name_english": "Zhongxiao Fuxing",
      "station_id": "BR10",
      "station_location_code": 10654,
      "station_line_name": "文湖線",
      "latitude": 25.041629,
      "station_address": "台北市大安區忠孝東路四段47號",
      "station_name_chinese": "忠孝復興",
      "longitude": 121.543767,
      "station_line_id": "BR"
  },
  {
      "station_name_english": "Nanjing Fuxing",
      "station_id": "BR11",
      "station_location_code": 10550,
      "station_line_name": "文湖線",
      "latitude": 25.052319,
      "station_address": "台北市松山區南京東路三段253號",
      "station_name_chinese": "南京復興",
      "longitude": 121.544011,
      "station_line_id": "BR"
  },
  {
      "station_name_english": "Zhongshan Junior High School",
      "station_id": "BR12",
      "station_location_code": 10476,
      "station_line_name": "文湖線",
      "latitude": 25.060849,
      "station_address": "台北市中山區復興北路376號",
      "station_name_chinese": "中山國中",
      "longitude": 121.544227,
      "station_line_id": "BR"
  },
  {
      "station_name_english": "Songshan Airport",
      "station_id": "BR13",
      "station_location_code": 10576,
      "station_line_name": "文湖線",
      "latitude": 25.063,
      "station_address": "台北市松山區敦化北路338號",
      "station_name_chinese": "松山機場",
      "longitude": 121.551996,
      "station_line_id": "BR"
  },
  {
      "station_name_english": "Dazhi",
      "station_id": "BR14",
      "station_location_code": 10465,
      "station_line_name": "文湖線",
      "latitude": 25.079477,
      "station_address": "台北市中山區北安路534之1號",
      "station_name_chinese": "大直",
      "longitude": 121.546895,
      "station_line_id": "BR"
  },
  {
      "station_name_english": "Jiannan Rd.",
      "station_id": "BR15",
      "station_location_code": 10464,
      "station_line_name": "文湖線",
      "latitude": 25.084853,
      "station_address": "台北市中山區北安路798號",
      "station_name_chinese": "劍南路",
      "longitude": 121.555592,
      "station_line_id": "BR"
  },
  {
      "station_name_english": "Xihu",
      "station_id": "BR16",
      "station_location_code": 11493,
      "station_line_name": "文湖線",
      "latitude": 25.082133,
      "station_address": "台北市內湖區內湖路一段256號",
      "station_name_chinese": "西湖",
      "longitude": 121.567213,
      "station_line_id": "BR"
  },
  {
      "station_name_english": "Gangqian",
      "station_id": "BR17",
      "station_location_code": 11446,
      "station_line_name": "文湖線",
      "latitude": 25.080028,
      "station_address": "台北市內湖區內湖路一段663號",
      "station_name_chinese": "港墘",
      "longitude": 121.575081,
      "station_line_id": "BR"
  },
  {
      "station_name_english": "Wende",
      "station_id": "BR18",
      "station_location_code": 11475,
      "station_line_name": "文湖線",
      "latitude": 25.078532,
      "station_address": "台北市內湖區文德路214號",
      "station_name_chinese": "文德",
      "longitude": 121.584761,
      "station_line_id": "BR"
  },
  {
      "station_name_english": "Neihu",
      "station_id": "BR19",
      "station_location_code": 11489,
      "station_line_name": "文湖線",
      "latitude": 25.083661,
      "station_address": "台北市內湖區成功路四段186號",
      "station_name_chinese": "內湖",
      "longitude": 121.594408,
      "station_line_id": "BR"
  },
  {
      "station_name_english": "Dahu Park",
      "station_id": "BR20",
      "station_location_code": 11477,
      "station_line_name": "文湖線",
      "latitude": 25.083845,
      "station_address": "台北市內湖區成功路五段11號",
      "station_name_chinese": "大湖公園",
      "longitude": 121.602141,
      "station_line_id": "BR"
  },
  {
      "station_name_english": "Huzhou",
      "station_id": "BR21",
      "station_location_code": 11486,
      "station_line_name": "文湖線",
      "latitude": 25.072701,
      "station_address": "台北市內湖區康寧路三段16號",
      "station_name_chinese": "葫洲",
      "longitude": 121.607158,
      "station_line_id": "BR"
  },
  {
      "station_name_english": "Donghu",
      "station_id": "BR22",
      "station_location_code": 11486,
      "station_line_name": "文湖線",
      "latitude": 25.067147,
      "station_address": "台北市內湖區康寧路三段235號",
      "station_name_chinese": "東湖",
      "longitude": 121.611445,
      "station_line_id": "BR"
  },
  {
      "station_name_english": "Nangang Software Park",
      "station_id": "BR23",
      "station_location_code": 11568,
      "station_line_name": "文湖線",
      "latitude": 25.059905,
      "station_address": "台北市南港區經貿二路183號",
      "station_name_chinese": "南港軟體園區",
      "longitude": 121.615953,
      "station_line_id": "BR"
  },
  {
      "station_name_english": "Taipei Nangang Exhibition Center",
      "station_id": "BR24",
      "station_location_code": 11568,
      "station_line_name": "文湖線",
      "latitude": 25.055288,
      "station_address": "台北市南港區南港路一段32號",
      "station_name_chinese": "南港展覽館",
      "longitude": 121.6175001,
      "station_line_id": "BR"
  },
  {
      "station_name_english": "Xiangshan",
      "station_id": "R02",
      "station_location_code": 11080,
      "station_line_name": "淡水信義線",
      "latitude": 25.03283,
      "station_address": "台北市信義區信義路五段152號B1",
      "station_name_chinese": "象山",
      "longitude": 121.569576,
      "station_line_id": "R"
  },
  {
      "station_name_english": "Taipei 101/World Trade Center",
      "station_id": "R03",
      "station_location_code": 11049,
      "station_line_name": "淡水信義線",
      "latitude": 25.033102,
      "station_address": "台北市信義區信義路五段20號B1",
      "station_name_chinese": "台北101/世貿",
      "longitude": 121.563292,
      "station_line_id": "R"
  },
  {
      "station_name_english": "Xinyi Anhe",
      "station_id": "R04",
      "station_location_code": 10681,
      "station_line_name": "淡水信義線",
      "latitude": 25.033326,
      "station_address": "台北市大安區信義路四段212之1號B1",
      "station_name_chinese": "信義安和",
      "longitude": 121.553526,
      "station_line_id": "R"
  },
  {
      "station_name_english": "Daan",
      "station_id": "R05",
      "station_location_code": 10683,
      "station_line_name": "淡水信義線",
      "latitude": 25.032943,
      "station_address": "台北市大安區信義路四段2號",
      "station_name_chinese": "大安",
      "longitude": 121.543551,
      "station_line_id": "R"
  },
  {
      "station_name_english": "Daan Park",
      "station_id": "R06",
      "station_location_code": 10656,
      "station_line_name": "淡水信義線",
      "latitude": 25.033396,
      "station_address": "台北市大安區信義路三段100號B1",
      "station_name_chinese": "大安森林公園",
      "longitude": 121.534882,
      "station_line_id": "R"
  },
  {
      "station_name_english": "Dongmen",
      "station_id": "R07",
      "station_location_code": 10650,
      "station_line_name": "淡水信義線",
      "latitude": 25.033847,
      "station_address": "台北市大安區信義路二段166號B1",
      "station_name_chinese": "東門",
      "longitude": 121.528739,
      "station_line_id": "R"
  },
  {
      "station_name_english": "Chiang Kai-Shek Memorial Hall",
      "station_id": "R08",
      "station_location_code": 10074,
      "station_line_name": "淡水信義線",
      "latitude": 25.032729,
      "station_address": "台北市中正區羅斯福路一段8之1號B1",
      "station_name_chinese": "中正紀念堂",
      "longitude": 121.51827,
      "station_line_id": "R"
  },
  {
      "station_name_english": "NTU Hospital",
      "station_id": "R09",
      "station_location_code": 10048,
      "station_line_name": "淡水信義線",
      "latitude": 25.041256,
      "station_address": "台北市中正區公園路52號B1",
      "station_name_chinese": "台大醫院",
      "longitude": 121.51604,
      "station_line_id": "R"
  },
  {
      "station_name_english": "Taipei Main Station",
      "station_id": "R10",
      "station_location_code": 10041,
      "station_line_name": "淡水信義線",
      "latitude": 25.046255,
      "station_address": "台北市中正區忠孝西路一段49號",
      "station_name_chinese": "台北車站",
      "longitude": 121.517532,
      "station_line_id": "R"
  },
  {
      "station_name_english": "Zhongshan",
      "station_id": "R11",
      "station_location_code": 10444,
      "station_line_name": "淡水信義線",
      "latitude": 25.052685,
      "station_address": "台北市中山區南京西路16號",
      "station_name_chinese": "中山",
      "longitude": 121.520392,
      "station_line_id": "R"
  },
  {
      "station_name_english": "Shuanglian",
      "station_id": "R12",
      "station_location_code": 10354,
      "station_line_name": "淡水信義線",
      "latitude": 25.057805,
      "station_address": "台北市大同區民生西路47號",
      "station_name_chinese": "雙連",
      "longitude": 121.520627,
      "station_line_id": "R"
  },
  {
      "station_name_english": "Minquan W. Rd.",
      "station_id": "R13",
      "station_location_code": 10365,
      "station_line_name": "淡水信義線",
      "latitude": 25.062905,
      "station_address": "台北市大同區民權西路72號",
      "station_name_chinese": "民權西路",
      "longitude": 121.51932,
      "station_line_id": "R"
  },
  {
      "station_name_english": "Yuanshan",
      "station_id": "R14",
      "station_location_code": 10367,
      "station_line_name": "淡水信義線",
      "latitude": 25.071353,
      "station_address": "台北市大同區酒泉街9之1號",
      "station_name_chinese": "圓山",
      "longitude": 121.520118,
      "station_line_id": "R"
  },
  {
      "station_name_english": "Jiantan",
      "station_id": "R15",
      "station_location_code": 11163,
      "station_line_name": "淡水信義線",
      "latitude": 25.084873,
      "station_address": "台北市士林區中山北路五段65號",
      "station_name_chinese": "劍潭",
      "longitude": 121.525078,
      "station_line_id": "R"
  },
  {
      "station_name_english": "Shilin",
      "station_id": "R16",
      "station_location_code": 11163,
      "station_line_name": "淡水信義線",
      "latitude": 25.093535,
      "station_address": "台北市士林區福德路1號",
      "station_name_chinese": "士林",
      "longitude": 121.52623,
      "station_line_id": "R"
  },
  {
      "station_name_english": "Zhishan",
      "station_id": "R17",
      "station_location_code": 11158,
      "station_line_name": "淡水信義線",
      "latitude": 25.10306,
      "station_address": "台北市士林區福國路70號",
      "station_name_chinese": "芝山",
      "longitude": 121.522514,
      "station_line_id": "R"
  },
  {
      "station_name_english": "Mingde",
      "station_id": "R18",
      "station_location_code": 11280,
      "station_line_name": "淡水信義線",
      "latitude": 25.109721,
      "station_address": "台北市北投區明德路95號",
      "station_name_chinese": "明德",
      "longitude": 121.518848,
      "station_line_id": "R"
  },
  {
      "station_name_english": "Shipai",
      "station_id": "R19",
      "station_location_code": 11271,
      "station_line_name": "淡水信義線",
      "latitude": 25.114523,
      "station_address": "台北市北投區石牌路一段200號",
      "station_name_chinese": "石牌",
      "longitude": 121.515559,
      "station_line_id": "R"
  },
  {
      "station_name_english": "Qilian",
      "station_id": "R20",
      "station_location_code": 11265,
      "station_line_name": "淡水信義線",
      "latitude": 25.120872,
      "station_address": "台北市北投區東華街二段301號",
      "station_name_chinese": "唭哩岸",
      "longitude": 121.506252,
      "station_line_id": "R"
  },
  {
      "station_name_english": "Qiyan",
      "station_id": "R21",
      "station_location_code": 11270,
      "station_line_name": "淡水信義線",
      "latitude": 25.125491,
      "station_address": "台北市北投區三合街二段489號",
      "station_name_chinese": "奇岩",
      "longitude": 121.501132,
      "station_line_id": "R"
  },
  {
      "station_name_english": "Beitou",
      "station_id": "R22",
      "station_location_code": 11246,
      "station_line_name": "淡水信義線",
      "latitude": 25.131841,
      "station_address": "台北市北投區光明路1號",
      "station_name_chinese": "北投",
      "longitude": 121.498633,
      "station_line_id": "R"
  },
  {
      "station_name_english": "Xinbeitou",
      "station_id": "R22A",
      "station_location_code": 11268,
      "station_line_name": "淡水信義線",
      "latitude": 25.136933,
      "station_address": "台北市北投區大業路700號",
      "station_name_chinese": "新北投",
      "longitude": 121.50253,
      "station_line_id": "R"
  },
  {
      "station_name_english": "Fuxinggang",
      "station_id": "R23",
      "station_location_code": 11257,
      "station_line_name": "淡水信義線",
      "latitude": 25.137474,
      "station_address": "台北市北投區中央北路三段53巷10號",
      "station_name_chinese": "復興崗",
      "longitude": 121.485444,
      "station_line_id": "R"
  },
  {
      "station_name_english": "Zhongyi",
      "station_id": "R24",
      "station_location_code": 11257,
      "station_line_name": "淡水信義線",
      "latitude": 25.130969,
      "station_address": "台北市北投區中央北路四段301號",
      "station_name_chinese": "忠義",
      "longitude": 121.47341,
      "station_line_id": "R"
  },
  {
      "station_name_english": "Guandu",
      "station_id": "R25",
      "station_location_code": 11259,
      "station_line_name": "淡水信義線",
      "latitude": 25.125633,
      "station_address": "台北市北投區大度路三段296巷51號",
      "station_name_chinese": "關渡",
      "longitude": 121.467102,
      "station_line_id": "R"
  },
  {
      "station_name_english": "Zhuwei",
      "station_id": "R26",
      "station_location_code": 25173,
      "station_line_name": "淡水信義線",
      "latitude": 25.13694,
      "station_address": "新北市淡水區民權路50號",
      "station_name_chinese": "竹圍",
      "longitude": 121.459479,
      "station_line_id": "R"
  },
  {
      "station_name_english": "Hongshulin",
      "station_id": "R27",
      "station_location_code": 25173,
      "station_line_name": "淡水信義線",
      "latitude": 25.154042,
      "station_address": "新北市淡水區中正東路二段68號",
      "station_name_chinese": "紅樹林",
      "longitude": 121.458872,
      "station_line_id": "R"
  },
  {
      "station_name_english": "Tamsui",
      "station_id": "R28",
      "station_location_code": 25158,
      "station_line_name": "淡水信義線",
      "latitude": 25.167818,
      "station_address": "新北市淡水區中正路1號",
      "station_name_chinese": "淡水",
      "longitude": 121.445561,
      "station_line_id": "R"
  },
  {
      "station_name_english": "Xindian",
      "station_id": "G01",
      "station_location_code": 23152,
      "station_line_name": "松山新店線",
      "latitude": 24.957855,
      "station_address": "新北市新店區北宜路一段2號",
      "station_name_chinese": "新店",
      "longitude": 121.537584,
      "station_line_id": "G"
  },
  {
      "station_name_english": "Xindian District Office",
      "station_id": "G02",
      "station_location_code": 23147,
      "station_line_name": "松山新店線",
      "latitude": 24.967393,
      "station_address": "新北市新店區北新路一段295號",
      "station_name_chinese": "新店區公所",
      "longitude": 121.54131,
      "station_line_id": "G"
  },
  {
      "station_name_english": "Qizhang",
      "station_id": "G03",
      "station_location_code": 23143,
      "station_line_name": "松山新店線",
      "latitude": 24.975169,
      "station_address": "新北市新店區北新路二段150號",
      "station_name_chinese": "七張",
      "longitude": 121.542942,
      "station_line_id": "G"
  },
  {
      "station_name_english": "Xiaobitan",
      "station_id": "G03A",
      "station_location_code": 23150,
      "station_line_name": "松山新店線",
      "latitude": 24.971907,
      "station_address": "新北市新店區中央路151號4樓",
      "station_name_chinese": "小碧潭",
      "longitude": 121.530339,
      "station_line_id": "G"
  },
  {
      "station_name_english": "Dapinglin",
      "station_id": "G04",
      "station_location_code": 23143,
      "station_line_name": "松山新店線",
      "latitude": 24.982899,
      "station_address": "新北市新店區北新路三段190號",
      "station_name_chinese": "大坪林",
      "longitude": 121.541352,
      "station_line_id": "G"
  },
  {
      "station_name_english": "Jingmei",
      "station_id": "G05",
      "station_location_code": 11674,
      "station_line_name": "松山新店線",
      "latitude": 24.9921276,
      "station_address": "台北市文山區羅斯福路六段393號",
      "station_name_chinese": "景美",
      "longitude": 121.5406037,
      "station_line_id": "G"
  },
  {
      "station_name_english": "Wanlong",
      "station_id": "G06",
      "station_location_code": 11678,
      "station_line_name": "松山新店線",
      "latitude": 25.001853,
      "station_address": "台北市文山區羅斯福路五段214號",
      "station_name_chinese": "萬隆",
      "longitude": 121.539051,
      "station_line_id": "G"
  },
  {
      "station_name_english": "Gongguan",
      "station_id": "G07",
      "station_location_code": 10091,
      "station_line_name": "松山新店線",
      "latitude": 25.014908,
      "station_address": "台北市中正區羅斯福路四段74號B1",
      "station_name_chinese": "公館",
      "longitude": 121.534216,
      "station_line_id": "G"
  },
  {
      "station_name_english": "Taipower Building",
      "station_id": "G08",
      "station_location_code": 10089,
      "station_line_name": "松山新店線",
      "latitude": 25.020725,
      "station_address": "台北市中正區羅斯福路三段126之5號B1",
      "station_name_chinese": "台電大樓",
      "longitude": 121.528168,
      "station_line_id": "G"
  },
  {
      "station_name_english": "Guting",
      "station_id": "G09",
      "station_location_code": 10084,
      "station_line_name": "松山新店線",
      "latitude": 25.026357,
      "station_address": "台北市中正區羅斯福路二段164之1號B1",
      "station_name_chinese": "古亭",
      "longitude": 121.522873,
      "station_line_id": "G"
  },
  {
      "station_name_english": "Chiang Kai-Shek Memorial Hall",
      "station_id": "G10",
      "station_location_code": 10074,
      "station_line_name": "松山新店線",
      "latitude": 25.032729,
      "station_address": "台北市中正區羅斯福路一段8之1號B1",
      "station_name_chinese": "中正紀念堂",
      "longitude": 121.51827,
      "station_line_id": "G"
  },
  {
      "station_name_english": "Xiaonanmen",
      "station_id": "G11",
      "station_location_code": 10066,
      "station_line_name": "松山新店線",
      "latitude": 25.035547,
      "station_address": "台北市中正區愛國西路22號B1",
      "station_name_chinese": "小南門",
      "longitude": 121.510857,
      "station_line_id": "G"
  },
  {
      "station_name_english": "Ximen",
      "station_id": "G12",
      "station_location_code": 10042,
      "station_line_name": "松山新店線",
      "latitude": 25.04209,
      "station_address": "台北市中正區寶慶路32之1號B1",
      "station_name_chinese": "西門",
      "longitude": 121.508303,
      "station_line_id": "G"
  },
  {
      "station_name_english": "Beimen",
      "station_id": "G13",
      "station_location_code": 10341,
      "station_line_name": "松山新店線",
      "latitude": 25.049554,
      "station_address": "台北市大同區塔城街10號",
      "station_name_chinese": "北門",
      "longitude": 121.510184,
      "station_line_id": "G"
  },
  {
      "station_name_english": "Zhongshan",
      "station_id": "G14",
      "station_location_code": 10444,
      "station_line_name": "松山新店線",
      "latitude": 25.052685,
      "station_address": "台北市中山區南京西路16號",
      "station_name_chinese": "中山",
      "longitude": 121.520392,
      "station_line_id": "G"
  },
  {
      "station_name_english": "Songjiang Nanjing",
      "station_id": "G15",
      "station_location_code": 10457,
      "station_line_name": "松山新店線",
      "latitude": 25.052015,
      "station_address": "台北市中山區松江路126號B1",
      "station_name_chinese": "松江南京",
      "longitude": 121.533075,
      "station_line_id": "G"
  },
  {
      "station_name_english": "Nanjing Fuxing",
      "station_id": "G16",
      "station_location_code": 10550,
      "station_line_name": "松山新店線",
      "latitude": 25.052319,
      "station_address": "台北市松山區南京東路三段253號",
      "station_name_chinese": "南京復興",
      "longitude": 121.544011,
      "station_line_id": "G"
  },
  {
      "station_name_english": "Taipei Arena",
      "station_id": "G17",
      "station_location_code": 10553,
      "station_line_name": "松山新店線",
      "latitude": 25.051836,
      "station_address": "台北市松山區南京東路4段10-1號",
      "station_name_chinese": "台北小巨蛋",
      "longitude": 121.55153,
      "station_line_id": "G"
  },
  {
      "station_name_english": "Nanjing Sanmin",
      "station_id": "G18",
      "station_location_code": 10569,
      "station_line_name": "松山新店線",
      "latitude": 25.051652,
      "station_address": "台北市松山區南京東路5段237號",
      "station_name_chinese": "南京三民",
      "longitude": 121.564708,
      "station_line_id": "G"
  },
  {
      "station_name_english": "Songshan",
      "station_id": "G19",
      "station_location_code": 11088,
      "station_line_name": "松山新店線",
      "latitude": 25.049283,
      "station_address": "台北市信義區松山路11號",
      "station_name_chinese": "松山",
      "longitude": 121.578012,
      "station_line_id": "G"
  },
  {
      "station_name_english": "Nanshijiao",
      "station_id": "O01",
      "station_location_code": 23566,
      "station_line_name": "中和新蘆線",
      "latitude": 24.990045,
      "station_address": "新北市中和區捷運路6號",
      "station_name_chinese": "南勢角",
      "longitude": 121.509237,
      "station_line_id": "O"
  },
  {
      "station_name_english": "Jingan",
      "station_id": "O02",
      "station_location_code": 23582,
      "station_line_name": "中和新蘆線",
      "latitude": 24.993905,
      "station_address": "新北市中和區景平路486號",
      "station_name_chinese": "景安",
      "longitude": 121.505113,
      "station_line_id": "O"
  },
  {
      "station_name_english": "Yongan Market",
      "station_id": "O03",
      "station_location_code": 23574,
      "station_line_name": "中和新蘆線",
      "latitude": 25.002876,
      "station_address": "新北市中和區中和路388號",
      "station_name_chinese": "永安市場",
      "longitude": 121.511231,
      "station_line_id": "O"
  },
  {
      "station_name_english": "Dingxi",
      "station_id": "O04",
      "station_location_code": 23445,
      "station_line_name": "中和新蘆線",
      "latitude": 25.013821,
      "station_address": "新北市永和區永和路二段168號B1",
      "station_name_chinese": "頂溪",
      "longitude": 121.515485,
      "station_line_id": "O"
  },
  {
      "station_name_english": "Guting",
      "station_id": "O05",
      "station_location_code": 10084,
      "station_line_name": "中和新蘆線",
      "latitude": 25.026357,
      "station_address": "台北市中正區羅斯福路二段164之1號B1",
      "station_name_chinese": "古亭",
      "longitude": 121.522873,
      "station_line_id": "O"
  },
  {
      "station_name_english": "Dongmen",
      "station_id": "O06",
      "station_location_code": 10650,
      "station_line_name": "中和新蘆線",
      "latitude": 25.033847,
      "station_address": "台北市大安區信義路二段166號B1",
      "station_name_chinese": "東門",
      "longitude": 121.528739,
      "station_line_id": "O"
  },
  {
      "station_name_english": "Zhongxiao Xinsheng",
      "station_id": "O07",
      "station_location_code": 10652,
      "station_line_name": "中和新蘆線",
      "latitude": 25.042356,
      "station_address": "台北市大安區新生南路一段67號",
      "station_name_chinese": "忠孝新生",
      "longitude": 121.532905,
      "station_line_id": "O"
  },
  {
      "station_name_english": "Songjiang Nanjing",
      "station_id": "O08",
      "station_location_code": 10457,
      "station_line_name": "中和新蘆線",
      "latitude": 25.052015,
      "station_address": "台北市中山區松江路126號B1",
      "station_name_chinese": "松江南京",
      "longitude": 121.533075,
      "station_line_id": "O"
  },
  {
      "station_name_english": "Xingtian Temple",
      "station_id": "O09",
      "station_location_code": 10468,
      "station_line_name": "中和新蘆線",
      "latitude": 25.059718,
      "station_address": "台北市中山區松江路316號B1",
      "station_name_chinese": "行天宮",
      "longitude": 121.533185,
      "station_line_id": "O"
  },
  {
      "station_name_english": "Zhongshan Elementary School",
      "station_id": "O10",
      "station_location_code": 10452,
      "station_line_name": "中和新蘆線",
      "latitude": 25.062694,
      "station_address": "台北市中山區民權東路一段71號B1",
      "station_name_chinese": "中山國小",
      "longitude": 121.526419,
      "station_line_id": "O"
  },
  {
      "station_name_english": "Minquan W. Rd.",
      "station_id": "O11",
      "station_location_code": 10365,
      "station_line_name": "中和新蘆線",
      "latitude": 25.062905,
      "station_address": "台北市大同區民權西路72號",
      "station_name_chinese": "民權西路",
      "longitude": 121.51932,
      "station_line_id": "O"
  },
  {
      "station_name_english": "Daqiaotou",
      "station_id": "O12",
      "station_location_code": 10357,
      "station_line_name": "中和新蘆線",
      "latitude": 25.063256,
      "station_address": "台北市大同區民權西路223號B1",
      "station_name_chinese": "大橋頭",
      "longitude": 121.51272,
      "station_line_id": "O"
  },
  {
      "station_name_english": "Taipei Bridge",
      "station_id": "O13",
      "station_location_code": 24142,
      "station_line_name": "中和新蘆線",
      "latitude": 25.063274,
      "station_address": "新北市三重區重新路一段108號B1",
      "station_name_chinese": "台北橋",
      "longitude": 121.500762,
      "station_line_id": "O"
  },
  {
      "station_name_english": "Cailiao",
      "station_id": "O14",
      "station_location_code": 24143,
      "station_line_name": "中和新蘆線",
      "latitude": 25.060274,
      "station_address": "新北市三重區重新路三段150號B1",
      "station_name_chinese": "菜寮",
      "longitude": 121.492156,
      "station_line_id": "O"
  },
  {
      "station_name_english": "Sanchong",
      "station_id": "O15",
      "station_location_code": 24161,
      "station_line_name": "中和新蘆線",
      "latitude": 25.055791,
      "station_address": "新北市三重區捷運路36號B1",
      "station_name_chinese": "三重",
      "longitude": 121.484725,
      "station_line_id": "O"
  },
  {
      "station_name_english": "Xianse Temple",
      "station_id": "O16",
      "station_location_code": 24158,
      "station_line_name": "中和新蘆線",
      "latitude": 25.046493,
      "station_address": "新北市三重區重新路五段515號B1",
      "station_name_chinese": "先嗇宮",
      "longitude": 121.471916,
      "station_line_id": "O"
  },
  {
      "station_name_english": "Touqianzhuang",
      "station_id": "O17",
      "station_location_code": 24251,
      "station_line_name": "中和新蘆線",
      "latitude": 25.039705,
      "station_address": "新北市新莊區思源路18號B1",
      "station_name_chinese": "頭前庄",
      "longitude": 121.461746,
      "station_line_id": "O"
  },
  {
      "station_name_english": "Xinzhuang",
      "station_id": "O18",
      "station_location_code": 24243,
      "station_line_name": "中和新蘆線",
      "latitude": 25.036125,
      "station_address": "新北市新莊區中正路138號B1",
      "station_name_chinese": "新莊",
      "longitude": 121.452468,
      "station_line_id": "O"
  },
  {
      "station_name_english": "Fu Jen University",
      "station_id": "O19",
      "station_location_code": 24205,
      "station_line_name": "中和新蘆線",
      "latitude": 25.032718,
      "station_address": "新北市新莊區中正路510之1號B1",
      "station_name_chinese": "輔大",
      "longitude": 121.43547,
      "station_line_id": "O"
  },
  {
      "station_name_english": "Danfeng",
      "station_id": "O20",
      "station_location_code": 24256,
      "station_line_name": "中和新蘆線",
      "latitude": 25.0288671,
      "station_address": "新北市新莊區中正路624之1號B1",
      "station_name_chinese": "丹鳳",
      "longitude": 121.4227079,
      "station_line_id": "O"
  },
  {
      "station_name_english": "Huilong",
      "station_id": "O21",
      "station_location_code": 24257,
      "station_line_name": "中和新蘆線",
      "latitude": 25.021862,
      "station_address": "新北市新莊區中正路758號B1",
      "station_name_chinese": "迴龍",
      "longitude": 121.41127,
      "station_line_id": "O"
  },
  {
      "station_name_english": "Sanchong Elementary School",
      "station_id": "O50",
      "station_location_code": 24149,
      "station_line_name": "中和新蘆線",
      "latitude": 25.070319,
      "station_address": "新北市三重區三和路三段5號B1",
      "station_name_chinese": "三重國小",
      "longitude": 121.496904,
      "station_line_id": "O"
  },
  {
      "station_name_english": "Sanhe Junior High School",
      "station_id": "O51",
      "station_location_code": 24152,
      "station_line_name": "中和新蘆線",
      "latitude": 25.076859,
      "station_address": "新北市三重區三和路四段107號B1",
      "station_name_chinese": "三和國中",
      "longitude": 121.486347,
      "station_line_id": "O"
  },
  {
      "station_name_english": "St. Ignatius High School",
      "station_id": "O52",
      "station_location_code": 24753,
      "station_line_name": "中和新蘆線",
      "latitude": 25.080728,
      "station_address": "新北市蘆洲區中山一路3號B1",
      "station_name_chinese": "徐匯中學",
      "longitude": 121.479673,
      "station_line_id": "O"
  },
  {
      "station_name_english": "Sanmin Senior High School",
      "station_id": "O53",
      "station_location_code": 24760,
      "station_line_name": "中和新蘆線",
      "latitude": 25.085456,
      "station_address": "新北市蘆洲區三民路105號B1",
      "station_name_chinese": "三民高中",
      "longitude": 121.473389,
      "station_line_id": "O"
  },
  {
      "station_name_english": "Luzhou",
      "station_id": "O54",
      "station_location_code": 24760,
      "station_line_name": "中和新蘆線",
      "latitude": 25.091554,
      "station_address": "新北市蘆洲區三民路386號B1",
      "station_name_chinese": "蘆洲",
      "longitude": 121.464471,
      "station_line_id": "O"
  },
  {
      "station_name_english": "Dingpu",
      "station_id": "BL01",
      "station_location_code": 23671,
      "station_line_name": "板南線",
      "latitude": 24.96012,
      "station_address": "新北市土城區中央路四段51-6號B3",
      "station_name_chinese": "頂埔",
      "longitude": 121.4205,
      "station_line_id": "BL"
  },
  {
      "station_name_english": "Yongning",
      "station_id": "BL02",
      "station_location_code": 23671,
      "station_line_name": "板南線",
      "latitude": 24.966726,
      "station_address": "新北市土城區中央路三段105號B1",
      "station_name_chinese": "永寧",
      "longitude": 121.436072,
      "station_line_id": "BL"
  },
  {
      "station_name_english": "Tucheng",
      "station_id": "BL03",
      "station_location_code": 23671,
      "station_line_name": "板南線",
      "latitude": 24.973094,
      "station_address": "新北市土城區金城路一段105號B1",
      "station_name_chinese": "土城",
      "longitude": 121.444362,
      "station_line_id": "BL"
  },
  {
      "station_name_english": "Haishan",
      "station_id": "BL04",
      "station_location_code": 23660,
      "station_line_name": "板南線",
      "latitude": 24.985339,
      "station_address": "新北市土城區海山路39號B2",
      "station_name_chinese": "海山",
      "longitude": 121.448786,
      "station_line_id": "BL"
  },
  {
      "station_name_english": "Far Eastern Hospital",
      "station_id": "BL05",
      "station_location_code": 22060,
      "station_line_name": "板南線",
      "latitude": 24.998037,
      "station_address": "新北市板橋區南雅南路二段17號B1",
      "station_name_chinese": "亞東醫院",
      "longitude": 121.452514,
      "station_line_id": "BL"
  },
  {
      "station_name_english": "Fuzhong",
      "station_id": "BL06",
      "station_location_code": 22055,
      "station_line_name": "板南線",
      "latitude": 25.008619,
      "station_address": "新北市板橋區縣民大道一段193號B1",
      "station_name_chinese": "府中",
      "longitude": 121.459409,
      "station_line_id": "BL"
  },
  {
      "station_name_english": "Banqiao",
      "station_id": "BL07",
      "station_location_code": 22041,
      "station_line_name": "板南線",
      "latitude": 25.013618,
      "station_address": "新北市板橋區站前路5號B1",
      "station_name_chinese": "板橋",
      "longitude": 121.462302,
      "station_line_id": "BL"
  },
  {
      "station_name_english": "Xinpu",
      "station_id": "BL08",
      "station_location_code": 22047,
      "station_line_name": "板南線",
      "latitude": 25.023738,
      "station_address": "新北市板橋區民生路三段2號B1",
      "station_name_chinese": "新埔",
      "longitude": 121.468361,
      "station_line_id": "BL"
  },
  {
      "station_name_english": "Jianzicui",
      "station_id": "BL09",
      "station_location_code": 22044,
      "station_line_name": "板南線",
      "latitude": 25.03001,
      "station_address": "新北市板橋區文化路二段296號B1",
      "station_name_chinese": "江子翠",
      "longitude": 121.47239,
      "station_line_id": "BL"
  },
  {
      "station_name_english": "Longshan Temple",
      "station_id": "BL10",
      "station_location_code": 10855,
      "station_line_name": "板南線",
      "latitude": 25.03528,
      "station_address": "台北市萬華區西園路一段153號",
      "station_name_chinese": "龍山寺",
      "longitude": 121.499826,
      "station_line_id": "BL"
  },
  {
      "station_name_english": "Ximen",
      "station_id": "BL11",
      "station_location_code": 10042,
      "station_line_name": "板南線",
      "latitude": 25.04209,
      "station_address": "台北市中正區寶慶路32之1號B1",
      "station_name_chinese": "西門",
      "longitude": 121.508303,
      "station_line_id": "BL"
  },
  {
      "station_name_english": "Taipei Main Station",
      "station_id": "BL12",
      "station_location_code": 10041,
      "station_line_name": "板南線",
      "latitude": 25.046255,
      "station_address": "台北市中正區忠孝西路一段49號",
      "station_name_chinese": "台北車站",
      "longitude": 121.517532,
      "station_line_id": "BL"
  },
  {
      "station_name_english": "Shandao Temple",
      "station_id": "BL13",
      "station_location_code": 10049,
      "station_line_name": "板南線",
      "latitude": 25.044823,
      "station_address": "台北市中正區忠孝東路一段58號B1",
      "station_name_chinese": "善導寺",
      "longitude": 121.523208,
      "station_line_id": "BL"
  },
  {
      "station_name_english": "Zhongxiao Xinsheng",
      "station_id": "BL14",
      "station_location_code": 10652,
      "station_line_name": "板南線",
      "latitude": 25.042356,
      "station_address": "台北市大安區新生南路一段67號",
      "station_name_chinese": "忠孝新生",
      "longitude": 121.532905,
      "station_line_id": "BL"
  },
  {
      "station_name_english": "Zhongxiao Fuxing",
      "station_id": "BL15",
      "station_location_code": 10654,
      "station_line_name": "板南線",
      "latitude": 25.041629,
      "station_address": "台北市大安區忠孝東路四段47號",
      "station_name_chinese": "忠孝復興",
      "longitude": 121.543767,
      "station_line_id": "BL"
  },
  {
      "station_name_english": "Zhongxiao Dunhua",
      "station_id": "BL16",
      "station_location_code": 10686,
      "station_line_name": "板南線",
      "latitude": 25.041478,
      "station_address": "台北市大安區忠孝東路四段182號",
      "station_name_chinese": "忠孝敦化",
      "longitude": 121.551098,
      "station_line_id": "BL"
  },
  {
      "station_name_english": "Sun Yat-Sen Memorial Hall",
      "station_id": "BL17",
      "station_location_code": 11072,
      "station_line_name": "板南線",
      "latitude": 25.041349,
      "station_address": "台北市信義區忠孝東路四段400號",
      "station_name_chinese": "國父紀念館",
      "longitude": 121.557802,
      "station_line_id": "BL"
  },
  {
      "station_name_english": "Taipei City Hall",
      "station_id": "BL18",
      "station_location_code": 11071,
      "station_line_name": "板南線",
      "latitude": 25.041171,
      "station_address": "台北市信義區忠孝東路五段2號",
      "station_name_chinese": "市政府",
      "longitude": 121.565228,
      "station_line_id": "BL"
  },
  {
      "station_name_english": "Yongchun",
      "station_id": "BL19",
      "station_location_code": 11061,
      "station_line_name": "板南線",
      "latitude": 25.040859,
      "station_address": "台北市信義區忠孝東路五段455號",
      "station_name_chinese": "永春",
      "longitude": 121.576293,
      "station_line_id": "BL"
  },
  {
      "station_name_english": "Houshanpi",
      "station_id": "BL20",
      "station_location_code": 11575,
      "station_line_name": "板南線",
      "latitude": 25.045055,
      "station_address": "台北市南港區忠孝東路六段2號",
      "station_name_chinese": "後山埤",
      "longitude": 121.582522,
      "station_line_id": "BL"
  },
  {
      "station_name_english": "Kunyang",
      "station_id": "BL21",
      "station_location_code": 11558,
      "station_line_name": "板南線",
      "latitude": 25.050461,
      "station_address": "台北市南港區忠孝東路六段451號",
      "station_name_chinese": "昆陽",
      "longitude": 121.593268,
      "station_line_id": "BL"
  },
  {
      "station_name_english": "Nangang",
      "station_id": "BL22",
      "station_location_code": 11561,
      "station_line_name": "板南線",
      "latitude": 25.052116,
      "station_address": "台北市南港區忠孝東路七段380號",
      "station_name_chinese": "南港",
      "longitude": 121.606686,
      "station_line_id": "BL"
  },
  {
      "station_name_english": "Taipei Nangang Exhibition Center",
      "station_id": "BL23",
      "station_location_code": 11568,
      "station_line_name": "板南線",
      "latitude": 25.055288,
      "station_address": "台北市南港區研究院路一段1號",
      "station_name_chinese": "南港展覽館",
      "longitude": 121.6175001,
      "station_line_id": "BL"
  }
]
